{
"type": "FeatureCollection",
"name": "westafricacities",
"crs": { "type": "name", "properties": { "name": "urn:ogc:def:crs:OGC:1.3:CRS84" } },
"features": [
{ "type": "Feature", "properties": { "X": -1.53388, "Y": 12.36566, "address": "Ouagadougou", "city": "Ouagadougou", "country": "Burkina Faso", "city_popul": 839800, "urban_area": 839800, "country_po": 18450000, "urbanrank_": 58, "cityrank_a": 48, "cartodb_ge": 1, "cartodb_id": 48, "created_at": "2015\/07\/10", "updated_at": "2015\/07\/10", "CityType": "cosmopolis" }, "geometry": { "type": "Point", "coordinates": [ -1.53388, 12.36566 ] } },
{ "type": "Feature", "properties": { "X": 9.70428, "Y": 4.04827, "address": "Douala", "city": "Douala", "country": "Cameroon", "city_popul": 1239100, "urban_area": 1449400, "country_po": 21918000, "urbanrank_": 31, "cityrank_a": 27, "cartodb_ge": 1, "cartodb_id": 27, "created_at": "2015\/07\/10", "updated_at": "2015\/07\/10", "CityType": "cosmopolis" }, "geometry": { "type": "Point", "coordinates": [ 9.70428, 4.04827 ] } },
{ "type": "Feature", "properties": { "X": 11.51667, "Y": 3.86667, "address": "Yaoundé", "city": "Yaoundé", "country": "Cameroon", "city_popul": 1122500, "urban_area": 1356600, "country_po": 21918000, "urbanrank_": 34, "cityrank_a": 33, "cartodb_ge": 1, "cartodb_id": 33, "created_at": "2015\/07\/10", "updated_at": "2015\/07\/10", "CityType": "cosmopolis" }, "geometry": { "type": "Point", "coordinates": [ 11.51667, 3.86667 ] } },
{ "type": "Feature", "properties": { "X": -4.033, "Y": 5.3167, "address": "Abidjan", "city": "Abidjan", "country": "Cote d’ Ivoire", "city_popul": 3310500, "urban_area": 3972300, "country_po": 23326000, "urbanrank_": 7, "cityrank_a": 6, "cartodb_ge": 1, "cartodb_id": 6, "created_at": "2015\/07\/10", "updated_at": "2015\/07\/10", "CityType": "metropolis" }, "geometry": { "type": "Point", "coordinates": [ -4.033, 5.3167 ] } },
{ "type": "Feature", "properties": { "X": -0.1969, "Y": 5.55602, "address": "Accra", "city": "Accra", "country": "Ghana", "city_popul": 1605400, "urban_area": 2756100, "country_po": 27714000, "urbanrank_": 14, "cityrank_a": 22, "cartodb_ge": 1, "cartodb_id": 22, "created_at": "2015\/07\/10", "updated_at": "2015\/07\/10", "CityType": "metropolis" }, "geometry": { "type": "Point", "coordinates": [ -0.1969, 5.55602 ] } },
{ "type": "Feature", "properties": { "X": -13.67729, "Y": 9.53795, "address": "Conakry", "city": "Conakry", "country": "Guinea", "city_popul": 1595800, "urban_area": 1595800, "country_po": 10935000, "urbanrank_": 28, "cityrank_a": 24, "cartodb_ge": 1, "cartodb_id": 24, "created_at": "2015\/07\/10", "updated_at": "2015\/07\/10", "CityType": "metropolis" }, "geometry": { "type": "Point", "coordinates": [ -13.67729, 9.53795 ] } },
{ "type": "Feature", "properties": { "X": -8.0, "Y": 12.65, "address": "Bamako", "city": "Bamako", "country": "Mali", "city_popul": 906700, "urban_area": 1130800, "country_po": 17796000, "urbanrank_": 41, "cityrank_a": 44, "cartodb_ge": 1, "cartodb_id": 44, "created_at": "2015\/07\/10", "updated_at": "2015\/07\/10", "CityType": "cosmopolis" }, "geometry": { "type": "Point", "coordinates": [ -8.0, 12.65 ] } },
{ "type": "Feature", "properties": { "X": 3.90591, "Y": 7.37756, "address": "Ibadan", "city": "Ibadan", "country": "Nigeria", "city_popul": 3078400, "urban_area": 3670400, "country_po": 184264000, "urbanrank_": 9, "cityrank_a": 8, "cartodb_ge": 1, "cartodb_id": 8, "created_at": "2015\/07\/10", "updated_at": "2015\/07\/10", "CityType": "metropolis" }, "geometry": { "type": "Point", "coordinates": [ 3.90591, 7.37756 ] } },
{ "type": "Feature", "properties": { "X": 7.43879, "Y": 10.52641, "address": "Kaduna", "city": "Kaduna", "country": "Nigeria", "city_popul": 1458900, "urban_area": 1458900, "country_po": 184264000, "urbanrank_": 30, "cityrank_a": 25, "cartodb_ge": 1, "cartodb_id": 25, "created_at": "2015\/07\/10", "updated_at": "2015\/07\/10", "CityType": "cosmopolis" }, "geometry": { "type": "Point", "coordinates": [ 7.43879, 10.52641 ] } },
{ "type": "Feature", "properties": { "X": 8.51672, "Y": 12.00012, "address": "Kano", "city": "Kano", "country": "Nigeria", "city_popul": 3248700, "urban_area": 3519500, "country_po": 184264000, "urbanrank_": 10, "cityrank_a": 7, "cartodb_ge": 1, "cartodb_id": 7, "created_at": "2015\/07\/10", "updated_at": "2015\/07\/10", "CityType": "metropolis" }, "geometry": { "type": "Point", "coordinates": [ 8.51672, 12.00012 ] } },
{ "type": "Feature", "properties": { "X": 3.39467, "Y": 6.45407, "address": "Lagos", "city": "Lagos", "country": "Nigeria", "city_popul": 8029200, "urban_area": 9123200, "country_po": 184264000, "urbanrank_": 2, "cityrank_a": 1, "cartodb_ge": 1, "cartodb_id": 1, "created_at": "2015\/07\/10", "updated_at": "2015\/07\/10", "CityType": "megapolis" }, "geometry": { "type": "Point", "coordinates": [ 3.39467, 6.45407 ] } },
{ "type": "Feature", "properties": { "X": 13.15712, "Y": 11.84692, "address": "Maiduguri", "city": "Maiduguri", "country": "Nigeria", "city_popul": 971700, "urban_area": 971700, "country_po": 184264000, "urbanrank_": 51, "cityrank_a": 40, "cartodb_ge": 1, "cartodb_id": 40, "created_at": "2015\/07\/10", "updated_at": "2015\/07\/10", "CityType": "cosmopolis" }, "geometry": { "type": "Point", "coordinates": [ 13.15712, 11.84692 ] } },
{ "type": "Feature", "properties": { "X": 7.0134, "Y": 4.77742, "address": "Port Harcourt", "city": "Port Harcourt", "country": "Nigeria", "city_popul": 1053900, "urban_area": 1190600, "country_po": 184264000, "urbanrank_": 37, "cityrank_a": 36, "cartodb_ge": 1, "cartodb_id": 36, "created_at": "2015\/07\/10", "updated_at": "2015\/07\/10", "CityType": "cosmopolis" }, "geometry": { "type": "Point", "coordinates": [ 7.0134, 4.77742 ] } },
{ "type": "Feature", "properties": { "X": 7.7227, "Y": 11.11128, "address": "Zaria", "city": "Zaria", "country": "Nigeria", "city_popul": 898900, "urban_area": 898900, "country_po": 184264000, "urbanrank_": 56, "cityrank_a": 46, "cartodb_ge": 1, "cartodb_id": 46, "created_at": "2015\/07\/10", "updated_at": "2015\/07\/10", "CityType": "cosmopolis" }, "geometry": { "type": "Point", "coordinates": [ 7.7227, 11.11128 ] } },
{ "type": "Feature", "properties": { "X": 5.62575, "Y": 6.33815, "address": "Benin", "city": "Benin", "country": "Nigeria", "city_popul": 1051600, "urban_area": 1051600, "country_po": 184264000, "urbanrank_": 45, "cityrank_a": 37, "cartodb_ge": 1, "cartodb_id": 37, "created_at": "2015\/07\/10", "updated_at": "2015\/07\/10", "CityType": "cosmopolis" }, "geometry": { "type": "Point", "coordinates": [ 5.62575, 6.33815 ] } },
{ "type": "Feature", "properties": { "X": -17.44406, "Y": 14.6937, "address": "Dakar", "city": "Dakar", "country": "Senegal", "city_popul": 2384000, "urban_area": 2384000, "country_po": 14150000, "urbanrank_": 19, "cityrank_a": 14, "cartodb_ge": 1, "cartodb_id": 14, "created_at": "2015\/07\/10", "updated_at": "2015\/07\/10", "CityType": "metropolis" }, "geometry": { "type": "Point", "coordinates": [ -17.44406, 14.6937 ] } },
{ "type": "Feature", "properties": { "X": -13.22994, "Y": 8.484, "address": "Freetown", "city": "Freetown", "country": "Sierra Leone", "city_popul": 1032100, "urban_area": 1032100, "country_po": 6513000, "urbanrank_": 47, "cityrank_a": 38, "cartodb_ge": 1, "cartodb_id": 38, "created_at": "2015\/07\/10", "updated_at": "2015\/07\/10", "CityType": "cosmopolis" }, "geometry": { "type": "Point", "coordinates": [ -13.22994, 8.484 ] } }
]
}
